[{"number":10,"name":"010- PICASSO","address":"12, mail Pablo Picasso","latitude":47.216207,"longitude":-1.533796},{"number":38,"name":"038-RICORDEAU","address":"Place Alexis-Ricordeau - Chaussée de la Madeleine","latitude":47.2121084631418,"longitude":-1.55304912932047},{"number":66,"name":"066-CHANZY","address":"Face au 23, avenue Chanzy","latitude":47.2254298853335,"longitude":-1.54799992590737},{"number":121,"name":"121-VICTOR RICHARD","address":"12, place Victor Richard","latitude":47.228614,"longitude":-1.533329},{"number":3,"name":"003-STRASBOURG","address":"4, rue des Carmélites - Place Tirant Lo Blanc","latitude":47.2164797718207,"longitude":-1.55154060534636},{"number":2,"name":"002-HÔTEL DE VILLE","address":"29, rue de Strasbourg","latitude":47.2185718130915,"longitude":-1.55348429039295},{"number":62,"name":"062-GARE DE NANTES NORD 2","address":"22-23 boulevard de Stalingrad","latitude":47.218103,"longitude":-1.541751},{"number":43,"name":"043-MACHINE DE L'ÎLE","address":"3, boulevard Léon Bureau","latitude":47.206918958696,"longitude":-1.56480679078299},{"number":58,"name":"058-PALAIS DES SPORTS","address":"8, rue André Tardieu","latitude":47.208465,"longitude":-1.536657},{"number":94,"name":"094-PETIT PORT","address":"Boulevard du Petit Port - place du 8 mai 1945","latitude":47.2432639149755,"longitude":-1.55634461016798},{"number":84,"name":"084-RÉGION","address":"Rue de la Loire - place Gaston Defferre","latitude":47.2107421421814,"longitude":-1.52593345192508},{"number":31,"name":"031-BOURSE","address":"Allée de la Bourse - Boulevard des Nations-Unies","latitude":47.2120830307532,"longitude":-1.55908655123987},{"number":74,"name":"074-CANCLAUX","address":"8, place Canclaux","latitude":47.2143336608893,"longitude":-1.57492461719297},{"number":117,"name":"117-MAIRIE DE CHANTENAY","address":"Place de la Liberté","latitude":47.20656,"longitude":-1.58785},{"number":72,"name":"072-BELLAMY-GUÉ MOREAU","address":"138, rue Paul Bellamy","latitude":47.2286256905746,"longitude":-1.56180639301113},{"number":40,"name":"040-MADELEINE","address":"Quai Moncousu - Pont Général Audibert","latitude":47.2088046424378,"longitude":-1.55041191411915},{"number":22,"name":"022-MOQUECHIEN","address":"8, rue Moquechien - 17, allée des Tanneurs","latitude":47.220392126692,"longitude":-1.55553104193626},{"number":19,"name":"019-SAINT SIMILIEN","address":"1, place Saint Similien","latitude":47.21985446733,"longitude":-1.55892089047478},{"number":106,"name":"106-GARENNES","address":"2, rue des Garennes","latitude":47.202127,"longitude":-1.5787},{"number":51,"name":"051-TABARLY","address":"5, boulevard de Berlin","latitude":47.2141946314965,"longitude":-1.52973588598036},{"number":89,"name":"089-SAINT-AIGNAN","address":"65, boulevard Saint-Aignan","latitude":47.2074386375471,"longitude":-1.57868926431099},{"number":112,"name":"112-PÔLE SOCIAL MARION CAHOUR","address":"10, rue Marion Cahour - REZÉ","latitude":47.188684,"longitude":-1.567201},{"number":77,"name":"077-ÉCOLE D'ARCHITECTURE","address":"6, quai François Mitterrand","latitude":47.2076056402121,"longitude":-1.55753246791432},{"number":42,"name":"042-GARE MARITIME","address":"Quai Ernest Renaud - Place Jacksonville","latitude":47.2065977289879,"longitude":-1.5726102869705},{"number":87,"name":"087-ANATOLE FRANCE","address":"41, rue Alexandre Dumas - Place Anatole France","latitude":47.2236048153991,"longitude":-1.57137357811241},{"number":47,"name":"047-MARTYRS NANTAIS","address":"1, boulevard des Martyrs Nantais de la Résistance","latitude":47.206933,"longitude":-1.548169},{"number":109,"name":"109-CLOS TOREAU","address":"Face 31, boulevard Emile Gabory","latitude":47.19426,"longitude":-1.529313},{"number":102,"name":"102-GARE DE PONT ROUSSEAU","address":"Rue de la Gare - REZÉ","latitude":47.19316,"longitude":-1.549212},{"number":113,"name":"113-MAIRIE DE REZÉ","address":"Place Jean-Baptiste Daviais - REZÉ","latitude":47.191117,"longitude":-1.569362},{"number":97,"name":"097-SAINT DONATIEN","address":"Place du 51ème Régiment d'Artillerie","latitude":47.2290880870929,"longitude":-1.54029259428922},{"number":56,"name":"056-VINCENT GACHE","address":"9, rue François Albert","latitude":47.2067986185753,"longitude":-1.54177773985064},{"number":110,"name":"110-AUDITORIUM","address":"1, avenue de Bretagne - REZÉ","latitude":47.185402,"longitude":-1.554025},{"number":7,"name":"007-BARILLERIE","address":"2, allée Penthièvre","latitude":47.2153313580104,"longitude":-1.55612612597517},{"number":27,"name":"027-GUIST'HAU NORD","address":"42, boulevard Gabriel Guist'Hau","latitude":47.2179298163251,"longitude":-1.56917188330244},{"number":15,"name":"015-ARISTIDE BRIAND","address":"Place Aristide Briand","latitude":47.2171848232902,"longitude":-1.56298679328837},{"number":83,"name":"083-MILLERAND","address":"9, boulevard Alexandre Millerand - 28, boulevard Georges Pompidou","latitude":47.2081996450388,"longitude":-1.53018043595997},{"number":45,"name":"045-PRAIRIE AU DUC","address":"25, boulevard de la Prairie au Duc","latitude":47.2047839355992,"longitude":-1.55892310936669},{"number":34,"name":"034-MÉDIATHÈQUE","address":"24, quai de la Fosse","latitude":47.2108869258159,"longitude":-1.56174490565258},{"number":123,"name":"123-TRARIEUX","address":"3, place Gabriel Trarieux","latitude":47.225957,"longitude":-1.522334},{"number":103,"name":"103-GRUE JAUNE","address":"Grue Jaune - Face au mail des Chantiers","latitude":47.204879,"longitude":-1.569191},{"number":115,"name":"115-TRENTEMOULT","address":"Face 11, quai Marcel Boissard - Trentemoult - REZÉ","latitude":47.195308,"longitude":-1.581806},{"number":122,"name":"122-MITRIE","address":"5, route de Sainte Luce","latitude":47.22865,"longitude":-1.526193},{"number":18,"name":"018-VIARME","address":"23, place Viarme","latitude":47.2214293389855,"longitude":-1.56330836686976},{"number":91,"name":"091-ROND POINT DE VANNES","address":"65, boulevard Lelasseur","latitude":47.2295806053692,"longitude":-1.57211457799373},{"number":46,"name":"046-RÉPUBLIQUE","address":"3, place de la République","latitude":47.2053240902952,"longitude":-1.55518310791618},{"number":95,"name":"095-MICHELET","address":"50, boulevard Michelet","latitude":47.235158,"longitude":-1.556322},{"number":20,"name":"020-BOUFFAY","address":"7, allée du Port Maillard - Cours Franklin Roosevelt","latitude":47.214301,"longitude":-1.552782},{"number":85,"name":"085-BEL AIR","address":"102, rue Paul Bellamy","latitude":47.2263944309861,"longitude":-1.56002281967663},{"number":81,"name":"081-MANGIN","address":"Devant le 8, place Mangin","latitude":47.2009555172397,"longitude":-1.54550725123162},{"number":55,"name":"055-MAGELLAN","address":"11, rue de Belfort","latitude":47.2107814065594,"longitude":-1.54429847094521},{"number":78,"name":"078-DE GAULLE","address":"7, rue Françoise Giroud - Boulevard Général de Gaulle","latitude":47.2084436771829,"longitude":-1.54051448829019},{"number":67,"name":"067-WALDECK ROUSSEAU","address":"Place Waldeck Rousseau - Pont Général de la Motte Rouge","latitude":47.2277747610651,"longitude":-1.55214798607222},{"number":92,"name":"092-ROND POINT DE RENNES","address":"Angle boulevard Lelasseur - Rue Paul Bellamy","latitude":47.2330281847759,"longitude":-1.56605906933562},{"number":59,"name":"059-STADE SAUPIN","address":"35, quai de Malakoff","latitude":47.213682,"longitude":-1.540181},{"number":53,"name":"053-OLIVETTES","address":"10, rue des Olivettes","latitude":47.2117363932221,"longitude":-1.54988602493776},{"number":57,"name":"057-GAËTAN RONDEAU","address":"20, rue Gaëtan Rondeau","latitude":47.2053961321791,"longitude":-1.53758186300399},{"number":76,"name":"076-RENÉ BOUHIER","address":"8, place René Bouhier","latitude":47.2094290925244,"longitude":-1.57051533628071},{"number":8,"name":"008-BOUCHERIE","address":"4, rue de la Boucherie","latitude":47.2162008925882,"longitude":-1.55711168019757},{"number":79,"name":"079-MALAKOFF","address":"15, quai de Malakoff","latitude":47.213395,"longitude":-1.536954},{"number":75,"name":"075-LAMORICIÈRE","address":"14 bis, rue Lamoricière - Place Beaumanoir","latitude":47.212308958847,"longitude":-1.57136936022191},{"number":116,"name":"116-LIBERTÉ","address":"Rond-Point de Louisiane","latitude":47.198124,"longitude":-1.588395},{"number":73,"name":"073-SARRADIN","address":"4, place Emile Sarradin","latitude":47.2208824330189,"longitude":-1.57043859807393},{"number":49,"name":"049-DUCHESSE ANNE","address":"2, place de la Duchesse Anne","latitude":47.2167,"longitude":-1.547253},{"number":25,"name":"025-DALBY","address":"61, boulevard Ernest Dalby","latitude":47.223508869812,"longitude":-1.52995959270347},{"number":93,"name":"093-FACULTÉS","address":"A l'angle route de la Jonelière -  Boulevard Guy Mollet","latitude":47.2462980684235,"longitude":-1.5553090111073},{"number":44,"name":"044-PALAIS DE JUSTICE","address":"19, quai François Mitterand - 1, rue Olympe de Gouges","latitude":47.2083172884415,"longitude":-1.5611730779894},{"number":48,"name":"048-VERDUN","address":"15, rue de Verdun","latitude":47.2175053746786,"longitude":-1.55184978437031},{"number":1,"name":"001-PRÉFECTURE","address":"6, quai Ceineray","latitude":47.2202551837245,"longitude":-1.55408380740881},{"number":104,"name":"104-ANTILLES","address":"20, quai des Antilles","latitude":47.202547,"longitude":-1.572325},{"number":99,"name":"099-ST JACQUES","address":"ST JACQUES - RUE ST JACQUES","latitude":47.1958989090141,"longitude":-1.5365406634647},{"number":108,"name":"108-BONNE GARDE","address":"Face 97, rue Bonne Garde","latitude":47.197217,"longitude":-1.532105},{"number":23,"name":"023-BUAT","address":"118, rue de Coulmiers","latitude":47.2271454682246,"longitude":-1.5424047412504},{"number":80,"name":"080-VICTOR HUGO","address":"25, boulevard Victor Hugo - 28, boulevard Gustave Roch","latitude":47.2040032084911,"longitude":-1.5515484848032},{"number":118,"name":"118-ÉGALITÉ","address":"Boulevard Léon Jouhaux","latitude":47.209661,"longitude":-1.589002},{"number":90,"name":"090-PROCÉ","address":"Angle boulevard Gaston Serpette - Boulevard Auguste Pageot","latitude":47.2241950617326,"longitude":-1.57661284372726},{"number":61,"name":"061-LIEU UNIQUE","address":"23, quai Ferdinand Favre","latitude":47.2155914639598,"longitude":-1.54590593911211},{"number":32,"name":"032-FOCH","address":"Place Foch","latitude":47.2192484,"longitude":-1.550185},{"number":17,"name":"017-SAINTE ÉLISABETH","address":"4, place Sainte Elisabeth","latitude":47.2192139526135,"longitude":-1.56157014764171},{"number":29,"name":"029-DUGUAY TROUIN","address":"18, allée Duguay Trouin","latitude":47.212727,"longitude":-1.557681},{"number":21,"name":"021-TALENSAC SUD","address":"6, rue Talensac","latitude":47.2211433291291,"longitude":-1.55647633932779},{"number":50,"name":"050-CHÂTEAU","address":"7, rue des Etats","latitude":47.2151496951626,"longitude":-1.55022624256337},{"number":37,"name":"037-FÉLIX ÉBOUÉ","address":"1, allée de l'Île Gloriette","latitude":47.211465063355,"longitude":-1.5568245371939},{"number":71,"name":"071-TALENSAC NORD","address":"18, rue Talensac - 26, rue de Bel Air","latitude":47.2218536381884,"longitude":-1.55894074669074},{"number":86,"name":"086-HAUTS PAVÉS","address":"Rue de Berry - Rue des Hauts Pavés","latitude":47.2254706269804,"longitude":-1.56750184250227},{"number":41,"name":"041-BRUNELIÈRE","address":"88, quai de la Fosse","latitude":47.208905,"longitude":-1.56823},{"number":12,"name":"012-DELORME","address":"1, boulevard Gabriel Guist'Hau - Place Delorme","latitude":47.2151581886857,"longitude":-1.56390067346586},{"number":98,"name":"098-HUIT MAI","address":"Avenue de la Libération - rue Eugène Pottier - REZÉ","latitude":47.189212047513,"longitude":-1.55082803645635},{"number":26,"name":"026-GUIST'HAU SUD","address":"30, boulevard Gabriel Guist'Hau - Rue Harouys","latitude":47.2168279599745,"longitude":-1.56700452626517},{"number":111,"name":"111-DIDEROT","address":"Avenue de la Vendée - Face à l'Espace Diderot - REZÉ","latitude":47.184491,"longitude":-1.562532},{"number":52,"name":"052-BACO","address":"8, allée Baco","latitude":47.2143275245891,"longitude":-1.54875055574198},{"number":120,"name":"120-ROND-POINT DE PARIS","address":"16, boulevard Jules Verne","latitude":47.234853,"longitude":-1.534981},{"number":39,"name":"039-QUAI MONCOUSU","address":"1, quai Moncousu - Pont Haudaudine","latitude":47.2094065738737,"longitude":-1.55523314463147},{"number":35,"name":"035-JEAN V","address":"Rue Pierre Louis Athénas","latitude":47.2123685630664,"longitude":-1.56497287562598},{"number":11,"name":"011-CALVAIRE","address":"8, rue du Calvaire - Place des Volontaires de la Défense Passive","latitude":47.2155789424271,"longitude":-1.56067528370012},{"number":101,"name":"101-PIRMIL","address":"13, rue Esnoul des Châtelets","latitude":47.1965313642396,"longitude":-1.54156809120326},{"number":119,"name":"119-ZOLA","address":"Place Emile Zola","latitude":47.213859,"longitude":-1.586108},{"number":125,"name":"125-PLACIS","address":"Avenue de la Martellière - SAINT-SÉBASTIEN-SUR-LOIRE","latitude":47.199378,"longitude":-1.520481},{"number":63,"name":"063-JARDIN DES PLANTES","address":"Rue Stanislas Baudry  - face rue Georges Clémenceau","latitude":47.219834197319,"longitude":-1.54471896453159},{"number":16,"name":"016-ÉDOUARD NORMAND","address":"Face au 7, place Edouard Normand","latitude":47.2190275447384,"longitude":-1.56341948405375},{"number":100,"name":"100-GRÉNERAIE","address":"Parc de la Gréneraie - NANTES","latitude":47.1999230929052,"longitude":-1.53471754047048},{"number":88,"name":"088-MELLINET","address":"1, boulevard Allard - Place Général Mellinet","latitude":47.2115010701178,"longitude":-1.57717541432178},{"number":70,"name":"070-GARE DE NANTES SUD","address":"Quai de Malakoff - Canal Saint-Félix","latitude":47.215505,"longitude":-1.542844},{"number":4,"name":"004-MOULIN","address":"18, rue du Moulin","latitude":47.2166675820152,"longitude":-1.5543847138777},{"number":96,"name":"096-TORTIÈRE","address":"Pont de la Tortière - boulevard Eugène Orieux","latitude":47.2353352222086,"longitude":-1.54922176680989},{"number":105,"name":"105-HANGAR À BANANES","address":"Boulevard des Antilles - quai Président Wilson - Grue Titan Grise","latitude":47.199408,"longitude":-1.573184},{"number":107,"name":"107-MOUTONNERIE","address":"Rue Francisco Ferrer","latitude":47.219901,"longitude":-1.532947},{"number":64,"name":"064-SAINT CLÉMENT","address":"24, rue du Maréchal Joffre","latitude":47.2217851835226,"longitude":-1.5470992337185},{"number":54,"name":"054-CITÉ INTERNATIONALE DES CONGRÈS","address":"2, rue de Jemmapes - 2, avenue Jean-Claude Bonduelle","latitude":47.2131800855278,"longitude":-1.54495254166858},{"number":14,"name":"014-SAINT FÉLIX","address":"35, Boulevard Amiral Courbet","latitude":47.230334,"longitude":-1.556133},{"number":9,"name":"009-GUÉPIN","address":"Angle rue du Calvaire / Rue Guépin","latitude":47.2158145871395,"longitude":-1.55901748516744},{"number":33,"name":"033-RACINE","address":"5, rue Racine","latitude":47.2135226137199,"longitude":-1.5631408744314},{"number":60,"name":"060-GARE DE NANTES NORD","address":"27 boulevard Stalingrad","latitude":47.217212,"longitude":-1.543517},{"number":24,"name":"024-VERSAILLES","address":"25, quai de Versailles - Ile de Versailles","latitude":47.2245149071911,"longitude":-1.55371196140233},{"number":68,"name":"068-LIVET","address":"65, rue Dufour","latitude":47.2240678794875,"longitude":-1.54521243421509},{"number":124,"name":"124-PAS ENCHANTÉS","address":"Boulevard des Pas Enchantés - SAINT-SÉBASTIEN-SUR-LOIRE","latitude":47.205239,"longitude":-1.522726},{"number":65,"name":"065-COURS SULLY","address":"9, cours Sully","latitude":47.2225873399067,"longitude":-1.55166644254598},{"number":114,"name":"114-ATOUTSUD","address":"Angle rue de l'Abbé Grégoire - avenue Maréchal de Tassigny - REZÉ","latitude":47.194493,"longitude":-1.570365},{"number":69,"name":"069-MANUFACTURE","address":"11 bis, boulevard Stalingrad","latitude":47.2192163807113,"longitude":-1.53584744327638},{"number":13,"name":"013-BRETAGNE SUD","address":"3, rue Pierre Chereau","latitude":47.216787949913,"longitude":-1.55916106661899},{"number":36,"name":"036-ALGER","address":"10, rue d'Alger","latitude":47.210549,"longitude":-1.567368},{"number":82,"name":"082-SÉBILLEAU","address":"120, rue Dr Jules Sébilleau","latitude":47.2067575123084,"longitude":-1.53311824492362},{"number":5,"name":"005-BROSSARD","address":"12, Allée Duquesne","latitude":47.2188372304694,"longitude":-1.55674926307655},{"number":6,"name":"006-PLACE DU CIRQUE","address":"7, allée Duquesne","latitude":47.217596682406,"longitude":-1.55693764537887}]